circuitid,nombre,ciudad,pais,latitud,longitud,mercado,tipo,merchandisingmillonesusd,beneficioimagenmillonesusd,patrociniolocalmillonesusd,hospitalidadmillonesusd,ticketingmillonesusd,beneficiototalmillonesusd,semanasnodisponibles
avus,AVUS,Berlin,Germany,52.4806,13.2514,alto,Permanente,4.66,14.34,15.57,20.43,23.3,78.31,"3,4,5,7,8,10,11,12,13,14,15,16,18,19,20,22,23,24,25,26,27,28,29,30,31,33,35,36,37,38,39,40,41,42,43,44,45,46,47,48,49,50,51,52"
ain-diab,Ain Diab,Casablanca,Morocco,33.5786,-7.6875,medio,Permanente,4.21,7.09,8.6,9.38,9.64,38.91,"2,3,4,7,9,11,12,15,16,17,18,19,20,21,22,24,25,27,28,30,32,34,35,36,38,39,40,43,44,45,46,47,48,50"
albert_park,Albert Park Grand Prix Circuit,Melbourne,Australia,-37.8497,144.968,premium,Urbano,16.49,36.7,19.64,26.05,51.24,150.12,"1,2,4,5,9,10,12,14,15,17,18,21,22,24,25,26,29,31,32,33,34,35,36,37,38,39,40,42,43,48,49,50"
bahrain,Bahrain International Circuit,Sakhir,Bahrain,26.0325,50.5106,medio,Permanente,4.87,9.62,3.4,5.88,17.18,40.95,"1,2,3,4,5,6,7,8,9,10,11,12,13,14,15,16,17,18,19,20,21,22,23,24,25,26,27,28,29,30,31,33,34,35,36,38,39,41,42,43,44,45,46,47,48,51,52"
bremgarten,Circuit Bremgarten,Bern,Switzerland,46.9589,7.40194,medio,Permanente,3.97,6.98,6.34,7.35,14.94,39.58,"2,4,5,8,9,10,11,12,14,17,19,21,22,23,25,26,27,28,29,30,32,34,35,36,37,38,39,40,42,45,47,48,49,50,52"
catalunya,Circuit de Barcelona-Catalunya,Barcelona,Spain,41.57,2.26111,alto,Permanente,6.91,13.51,14.86,18.01,20.13,73.41,"1,2,3,7,9,12,13,14,15,18,19,20,22,23,24,25,28,29,31,33,34,35,36,37,38,39,41,43,47,49,50,51"
dijon,Dijon-Prenois,Dijon,France,47.3625,4.89913,alto,Permanente,6.36,17.22,11.25,16.88,23.81,75.52,"1,2,4,5,6,7,8,9,11,12,13,14,15,16,17,18,19,20,21,22,23,24,25,26,27,29,30,31,32,33,34,35,37,40,41,42,43,44,45,46,47,48,49,51"
galvez,Autódromo Juan y Oscar Gálvez,Buenos Aires,Argentina,-34.6943,-58.4593,medio,Permanente,3.12,6.57,3.15,5.34,19.89,38.06,"1,2,3,4,7,10,11,12,13,16,18,19,21,22,23,25,26,27,28,30,31,32,34,35,36,38,39,41,42,43,44,46,47,48,49,50,51"
george,Prince George Circuit,Eastern Cape Province,South Africa,-33.0486,27.8736,medio,Permanente,3.52,9.83,3.91,9.29,17.03,43.58,"1,4,6,7,8,13,15,17,18,21,23,24,25,27,28,29,32,35,37,38,40,41,42,43,44,48,51,52"
imola,Autodromo Enzo e Dino Ferrari,Imola,Italy,44.3439,11.7167,alto,Permanente,4.2,17.89,17.96,13.96,22.9,76.92,"1,2,3,4,5,6,7,8,9,10,11,12,13,15,16,17,19,20,21,22,23,24,25,26,27,28,30,31,32,33,34,35,36,37,38,39,40,41,42,43,44,45,46,47,48,49,51,52"
indianapolis,Indianapolis Motor Speedway,Indianapolis,USA,39.795,-86.2347,premium,Permanente,12.63,26.14,28.1,27.59,30.42,124.88,"1,2,3,4,5,6,7,9,10,12,14,15,16,17,18,19,20,21,22,23,24,25,28,29,30,31,33,35,37,38,39,41,43,45,46,47,48,49,50,51"
jacarepagua,Autódromo Internacional Nelson Piquet,Rio de Janeiro,Brazil,-22.9756,-43.395,medio,Permanente,3.43,10.58,3.65,7.49,8.59,33.75,"1,2,3,4,6,9,10,12,14,15,18,19,21,22,26,27,28,29,30,33,34,35,37,38,40,42,43,46,48,49,50,51,52"
jeddah,Jeddah Corniche Circuit,Jeddah,Saudi Arabia,21.6319,39.1044,premium,Permanente,13.34,36.86,34.01,37.76,34.08,156.05,"2,3,4,5,8,9,10,11,12,13,15,16,18,20,22,23,24,25,26,27,28,29,30,33,34,37,39,41,42,43,44,45,46,47,48,49,50,51,52"
las_vegas,Las Vegas Street Circuit,Nevada,USA,36.1162,-115.174,premium,Urbano,12.66,36.21,16.89,38.94,41.91,146.61,"1,2,3,4,5,6,7,9,10,11,12,13,14,15,17,18,20,21,22,24,26,27,28,31,33,34,35,36,37,38,39,41,42,45,46,47,48,49,50,51,52"
long_beach,Long Beach,California,USA,33.7651,-118.189,premium,Permanente,14.66,32.19,20.91,29.92,33.66,131.34,"2,3,5,6,7,8,9,11,12,13,14,15,16,17,18,19,20,21,22,23,24,25,26,27,28,29,30,31,32,33,34,35,37,38,39,40,41,42,43,44,45,46,47,48,49,50,51,52"
marina_bay,Marina Bay Street Circuit,Marina Bay,Singapore,1.2914,103.864,premium,Urbano,18.62,35.89,28.59,27.12,38.34,148.56,"1,3,5,7,8,10,11,12,13,14,15,17,18,19,23,26,27,29,32,33,35,36,37,38,40,41,42,43,44,45,46,47,48"
monaco,Circuit de Monaco,Monte Carlo,Monaco,43.7347,7.42056,premium,Permanente,10.14,27.13,17.59,26.25,59.03,140.14,"1,2,3,4,5,9,10,11,15,16,17,19,20,21,22,23,25,26,29,30,35,37,39,41,42,43,45,48,49,51,52"
monsanto,Monsanto Park Circuit,Lisbon,Portugal,38.7197,-9.20306,medio,Urbano,3.17,5.93,8.19,5.73,9.12,32.14,"1,2,4,5,7,8,9,10,12,14,15,18,19,20,21,22,24,25,26,27,28,30,31,32,34,35,36,37,39,40,42,43,44,45,46,48,49,51"
monza,Autodromo Nazionale di Monza,Monza,Italy,45.6156,9.28111,alto,Permanente,4.67,22.5,14.33,21.99,22.67,86.17,"3,4,5,6,7,8,9,10,12,13,15,18,19,20,22,23,24,25,26,28,29,30,31,32,33,34,35,36,37,38,40,41,42,44,46,47,48,49,50,51,52"
mosport,Mosport International Raceway,Ontario,Canada,44.0481,-78.6756,alto,Permanente,4.84,24.71,12.36,13.93,18.95,74.77,"1,2,3,4,5,6,7,8,9,10,11,12,13,14,16,17,18,19,20,21,22,23,24,25,26,27,28,29,30,31,32,33,34,35,37,39,40,41,42,43,44,45,46,47,48,49,50,51,52"
mugello,Autodromo Internazionale del Mugello,Mugello,Italy,43.9975,11.3719,alto,Permanente,7.45,17.31,8.76,20.28,15.72,69.52,"1,4,5,7,9,10,15,16,21,22,23,24,26,31,34,35,37,38,40,41,43,44,46,47,52"
nurburgring,Nürburgring,Nürburg,Germany,50.3356,6.9475,alto,Permanente,5.63,14.09,13.69,12.37,25.63,71.42,"2,3,4,5,6,7,8,9,10,11,12,14,15,16,17,18,19,20,23,24,28,29,30,31,33,35,37,39,42,44,45,47,49"
okayama,Okayama International Circuit,Okayama,Japan,34.915,134.221,premium,Permanente,13.04,35.67,15.05,36.14,34.86,134.77,"4,5,6,8,9,10,11,14,17,18,19,22,23,24,25,26,27,29,33,36,37,39,40,41,46,47,48,50"
pedralbes,Circuit de Pedralbes,Barcelona,Spain,41.3903,2.11667,alto,Permanente,6.93,16.22,13.26,15.62,31.38,83.41,"1,2,3,4,5,7,8,9,10,11,12,13,15,16,17,18,19,20,21,22,23,24,25,26,27,28,29,31,32,33,35,36,37,38,39,40,42,43,44,45,46,47,48,49,50,51,52"
portimao,Autódromo Internacional do Algarve,Portimão,Portugal,37.227,-8.6267,medio,Permanente,2.85,10.13,5.32,10.84,14.01,43.16,"1,4,5,6,8,10,12,13,14,15,16,17,18,19,20,22,26,27,28,29,31,32,33,34,35,36,37,38,39,40,46,49,50,52"
ricard,Circuit Paul Ricard,Le Castellet,France,43.2506,5.79167,alto,Permanente,7.17,20.69,12.0,19.04,29.87,88.78,"1,2,3,4,5,6,7,8,9,10,11,15,16,17,18,20,21,22,23,25,26,27,28,29,30,31,32,33,34,35,36,37,38,39,40,41,42,43,44,45,46,48,49,50,51,52"
sochi,Sochi Autodrom,Sochi,Russia,43.4057,39.9578,medio,Permanente,2.35,6.58,7.66,10.56,8.17,35.33,"1,2,3,5,6,7,9,11,13,14,15,16,17,18,19,20,21,22,23,25,27,28,29,31,32,33,34,35,38,39,40,41,42,43,44,45,46,47,49,51,52"
spa,Circuit de Spa-Francorchamps,Spa,Belgium,50.4372,5.97139,alto,Permanente,4.67,23.49,16.12,21.75,16.43,82.47,"1,2,4,5,7,8,9,11,12,13,14,15,17,18,20,22,26,28,29,30,34,38,40,41,42,46,47,50"
tremblant,Circuit Mont-Tremblant,Quebec,Canada,46.1877,-74.6099,alto,Permanente,7.62,23.7,16.05,18.22,15.95,81.55,"3,5,7,8,10,11,12,14,16,17,18,25,28,29,30,31,33,34,35,36,37,39,40,41,42,43,44,46,50,52"
valencia,Valencia Street Circuit,Valencia,Spain,39.4589,-0.331667,alto,Urbano,8.83,16.83,17.58,20.15,33.23,96.62,"2,4,5,6,7,8,15,16,17,18,19,26,30,32,33,35,36,37,38,39,40,41,42,45,47,48,49,50,52"
vegas,Las Vegas Strip Street Circuit,Las Vegas,USA,36.1147,-115.173,premium,Urbano,18.16,50.9,34.09,25.08,41.01,169.24,"1,2,3,4,5,6,7,8,9,10,11,12,16,17,18,19,22,23,24,25,26,27,28,29,30,31,32,34,35,36,37,38,39,40,41,42,43,44,45,46,47,48,49,50,51,52"
villeneuve,Circuit Gilles Villeneuve,Montreal,Canada,45.5,-73.5228,alto,Permanente,6.61,13.09,14.07,11.09,17.94,62.8,"1,3,4,5,6,7,8,9,10,11,12,13,14,15,16,17,18,19,20,21,22,23,24,25,26,29,30,31,32,33,34,35,36,38,39,40,41,42,43,44,46,47,48,49"
yeongam,Korean International Circuit,Yeongam County,Korea,34.7333,126.417,medio,Permanente,3.59,10.23,4.31,5.35,16.52,40.0,"1,2,5,7,8,13,14,16,17,20,21,22,24,25,26,27,28,29,32,35,36,39,43,45,46,47,48,52"
zolder,Zolder,Heusden-Zolder,Belgium,50.9894,5.25694,alto,Permanente,7.9,23.99,13.84,11.34,18.4,75.48,"1,2,4,5,6,7,8,9,10,11,12,14,15,16,17,18,20,21,22,23,25,26,27,28,29,31,32,35,39,40,41,43,45,47,48,50"
jarama,Jarama,Madrid,Spain,40.6171,-3.58558,alto,Permanente,5.55,16.98,10.69,12.1,24.77,70.09,"1,2,3,4,5,6,7,8,10,11,12,15,17,19,20,21,22,23,24,25,27,28,29,30,31,32,33,34,35,36,37,38,39,40,41,42,43,44,45,46,47,48,49,51"
