circuitid,nombre,ciudad,pais,latitud,longitud,mercado,tipo,merchandisingmillonesusd,beneficioimagenmillonesusd,patrociniolocalmillonesusd,hospitalidadmillonesusd,ticketingmillonesusd,beneficiototalmillonesusd,semanasnodisponibles
avus,AVUS,Berlin,Germany,52.4806,13.2514,alto,Permanente,4.66,14.34,15.57,20.43,23.3,78.31,"3,4,5,7,8,10,11,12,13,14,15,16,18,19,20,22,23,24,25,26,27,28,29,30,31,33,35,36,37,38,39,40,41,42,43,44,45,46,47,48,49,50,51,52"
ain-diab,Ain Diab,Casablanca,Morocco,33.5786,-7.6875,medio,Permanente,4.21,7.09,8.6,9.38,9.64,38.91,"2,3,4,7,9,11,12,15,16,17,18,19,20,21,22,24,25,27,28,30,32,34,35,36,38,39,40,43,44,45,46,47,48,50"
bahrain,Bahrain International Circuit,Sakhir,Bahrain,26.0325,50.5106,medio,Permanente,4.87,9.62,3.4,5.88,17.18,40.95,"1,2,3,4,5,6,7,8,9,10,11,12,13,14,15,16,17,18,19,20,21,22,23,24,25,26,27,28,29,30,31,33,34,35,36,38,39,41,42,43,44,45,46,47,48,51,52"
baku,Baku City Circuit,Baku,Azerbaijan,40.3725,49.8533,medio,Urbano,3.07,12.99,5.63,7.57,11.71,40.97,"1,2,3,4,5,6,7,9,10,11,12,15,17,19,20,21,22,23,25,26,27,28,29,30,31,32,34,35,37,40,41,42,44,46,47,48,50,51,52"
brands_hatch,Brands Hatch,Kent,UK,51.3569,0.263056,alto,Permanente,6.75,22.71,17.89,21.45,18.9,87.71,"1,2,3,4,5,6,7,8,9,10,11,12,13,14,15,16,17,18,19,20,21,22,24,26,27,28,29,30,32,34,35,36,37,38,39,40,41,42,43,44,45,46,47,48,49,51"
bremgarten,Circuit Bremgarten,Bern,Switzerland,46.9589,7.40194,medio,Permanente,3.97,6.98,6.34,7.35,14.94,39.58,"2,4,5,8,9,10,11,12,14,17,19,21,22,23,25,26,27,28,29,30,32,34,35,36,37,38,39,40,42,45,47,48,49,50,52"
buddh,Buddh International Circuit,Uttar Pradesh,India,28.3487,77.5331,medio,Permanente,3.71,8.74,6.66,7.78,9.29,36.17,"2,7,11,12,14,15,16,19,20,21,23,24,25,26,27,29,33,34,36,38,39,40,41,43,44,45,46,47,48,49,51,52"
catalunya,Circuit de Barcelona-Catalunya,Barcelona,Spain,41.57,2.26111,alto,Permanente,6.91,13.51,14.86,18.01,20.13,73.41,"1,2,3,7,9,12,13,14,15,18,19,20,22,23,24,25,28,29,31,33,34,35,36,37,38,39,41,43,47,49,50,51"
dallas,Fair Park,Dallas,USA,32.7774,-96.7587,premium,Urbano,12.08,32.6,30.34,32.07,44.13,151.22,"1,2,6,8,10,11,12,13,14,16,17,18,20,21,22,24,25,27,29,31,33,34,35,36,37,39,42,43,49,50,51"
dijon,Dijon-Prenois,Dijon,France,47.3625,4.89913,alto,Permanente,6.36,17.22,11.25,16.88,23.81,75.52,"1,2,4,5,6,7,8,9,11,12,13,14,15,16,17,18,19,20,21,22,23,24,25,26,27,29,30,31,32,33,34,35,37,40,41,42,43,44,45,46,47,48,49,51"
donington,Donington Park,Castle Donington,UK,52.8306,-1.37528,alto,Urbano,8.25,24.94,17.56,21.69,16.5,88.94,"1,4,6,7,9,10,11,13,14,15,16,18,19,20,21,22,23,24,25,26,27,28,31,32,33,34,38,39,40,41,42,44,45,46,48,49,50,51"
george,Prince George Circuit,Eastern Cape Province,South Africa,-33.0486,27.8736,medio,Permanente,3.52,9.83,3.91,9.29,17.03,43.58,"1,4,6,7,8,13,15,17,18,21,23,24,25,27,28,29,32,35,37,38,40,41,42,43,44,48,51,52"
imola,Autodromo Enzo e Dino Ferrari,Imola,Italy,44.3439,11.7167,alto,Permanente,4.2,17.89,17.96,13.96,22.9,76.92,"1,2,3,4,5,6,7,8,9,10,11,12,13,15,16,17,19,20,21,22,23,24,25,26,27,28,30,31,32,33,34,35,36,37,38,39,40,41,42,43,44,45,46,47,48,49,51,52"
indianapolis,Indianapolis Motor Speedway,Indianapolis,USA,39.795,-86.2347,premium,Permanente,12.63,26.14,28.1,27.59,30.42,124.88,"1,2,3,4,5,6,7,9,10,12,14,15,16,17,18,19,20,21,22,23,24,25,28,29,30,31,33,35,37,38,39,41,43,45,46,47,48,49,50,51"
interlagos,Autódromo José Carlos Pace,São Paulo,Brazil,-23.7036,-46.6997,medio,Permanente,4.3,9.72,8.52,7.96,15.74,46.23,"2,3,6,7,8,11,13,14,15,18,19,20,22,23,24,26,27,30,31,32,33,35,36,38,40,41,42,43,46"
jacarepagua,Autódromo Internacional Nelson Piquet,Rio de Janeiro,Brazil,-22.9756,-43.395,medio,Permanente,3.43,10.58,3.65,7.49,8.59,33.75,"1,2,3,4,6,9,10,12,14,15,18,19,21,22,26,27,28,29,30,33,34,35,37,38,40,42,43,46,48,49,50,51,52"
jeddah,Jeddah Corniche Circuit,Jeddah,Saudi Arabia,21.6319,39.1044,premium,Permanente,13.34,36.86,34.01,37.76,34.08,156.05,"2,3,4,5,8,9,10,11,12,13,15,16,18,20,22,23,24,25,26,27,28,29,30,33,34,37,39,41,42,43,44,45,46,47,48,49,50,51,52"
kyalami,Kyalami,Midrand,South Africa,-25.9894,28.0767,medio,Permanente,4.53,8.33,7.81,6.19,11.08,37.94,"1,2,3,5,6,8,9,10,11,12,13,14,15,16,17,18,19,20,21,22,23,24,25,26,27,28,29,30,31,32,33,34,35,36,37,38,40,41,42,43,44,45,46,47,48,49,50,51,52"
las_vegas,Las Vegas Street Circuit,Nevada,USA,36.1162,-115.174,premium,Urbano,12.66,36.21,16.89,38.94,41.91,146.61,"1,2,3,4,5,6,7,9,10,11,12,13,14,15,17,18,20,21,22,24,26,27,28,31,33,34,35,36,37,38,39,41,42,45,46,47,48,49,50,51,52"
lemans,Le Mans,Le Mans,France,47.95,0.224231,alto,Permanente,4.91,12.77,14.77,15.08,20.46,67.99,"1,2,3,4,5,6,7,8,9,10,11,12,13,14,15,17,18,19,21,22,23,25,26,27,28,29,30,31,32,33,34,36,37,38,39,40,41,43,44,46,47,49,50,51,52"
marina_bay,Marina Bay Street Circuit,Marina Bay,Singapore,1.2914,103.864,premium,Urbano,18.62,35.89,28.59,27.12,38.34,148.56,"1,3,5,7,8,10,11,12,13,14,15,17,18,19,23,26,27,29,32,33,35,36,37,38,40,41,42,43,44,45,46,47,48"
nivelles,Nivelles-Baulers,Brussels,Belgium,50.6211,4.32694,alto,Permanente,7.57,16.18,10.07,14.62,15.53,63.96,"1,2,4,6,8,9,10,11,12,13,14,15,16,17,19,20,21,24,25,26,27,29,30,31,32,33,35,36,39,40,41,42,43,44,46,47,48,49,50,51"
okayama,Okayama International Circuit,Okayama,Japan,34.915,134.221,premium,Permanente,13.04,35.67,15.05,36.14,34.86,134.77,"4,5,6,8,9,10,11,14,17,18,19,22,23,24,25,26,27,29,33,36,37,39,40,41,46,47,48,50"
pescara,Pescara Circuit,Pescara,Italy,42.475,14.1508,alto,Permanente,7.86,20.17,8.4,21.33,21.41,79.19,"1,3,4,5,6,7,8,9,10,11,12,13,14,15,16,17,18,19,20,21,22,23,25,26,27,28,29,30,32,33,34,35,37,38,39,40,42,43,44,45,46,47,48,50,51,52"
ricard,Circuit Paul Ricard,Le Castellet,France,43.2506,5.79167,alto,Permanente,7.17,20.69,12.0,19.04,29.87,88.78,"1,2,3,4,5,6,7,8,9,10,11,15,16,17,18,20,21,22,23,25,26,27,28,29,30,31,32,33,34,35,36,37,38,39,40,41,42,43,44,45,46,48,49,50,51,52"
sebring,Sebring International Raceway,Florida,USA,27.4547,-81.3483,premium,Permanente,12.18,38.97,18.12,37.14,48.81,155.22,"3,4,5,6,7,8,9,10,11,12,13,14,16,18,19,20,21,22,23,24,25,27,28,32,34,35,36,37,39,41,42,43,44,46,50"
sepang,Sepang International Circuit,Kuala Lumpur,Malaysia,2.76083,101.738,medio,Permanente,4.76,10.74,4.89,7.58,18.75,46.71,"1,2,3,4,7,8,10,11,12,13,15,16,17,18,22,24,25,27,28,29,30,34,37,38,39,41,44,45,47,48,49"
silverstone,Silverstone Circuit,Silverstone,UK,52.0786,-1.01694,alto,Permanente,6.5,20.19,11.85,15.2,21.6,75.34,"1,2,3,4,6,7,8,9,10,11,12,13,14,15,16,17,18,19,20,21,22,23,24,25,26,28,29,30,31,32,33,34,36,37,38,39,40,41,42,43,44,45,46,47,48,49,50,51,52"
tremblant,Circuit Mont-Tremblant,Quebec,Canada,46.1877,-74.6099,alto,Permanente,7.62,23.7,16.05,18.22,15.95,81.55,"3,5,7,8,10,11,12,14,16,17,18,25,28,29,30,31,33,34,35,36,37,39,40,41,42,43,44,46,50,52"
villeneuve,Circuit Gilles Villeneuve,Montreal,Canada,45.5,-73.5228,alto,Permanente,6.61,13.09,14.07,11.09,17.94,62.8,"1,3,4,5,6,7,8,9,10,11,12,13,14,15,16,17,18,19,20,21,22,23,24,25,26,29,30,31,32,33,34,35,36,38,39,40,41,42,43,44,46,47,48,49"
watkins_glen,Watkins Glen,New York State,USA,42.3369,-76.9272,premium,Permanente,10.88,28.14,33.33,26.38,58.56,157.29,"4,7,9,11,12,13,14,17,18,19,21,24,25,26,27,30,34,35,36,38,40,41,44,45,46,48,51,52"
yeongam,Korean International Circuit,Yeongam County,Korea,34.7333,126.417,medio,Permanente,3.59,10.23,4.31,5.35,16.52,40.0,"1,2,5,7,8,13,14,16,17,20,21,22,24,25,26,27,28,29,32,35,36,39,43,45,46,47,48,52"
zandvoort,Circuit Park Zandvoort,Zandvoort,Netherlands,52.3888,4.54092,alto,Urbano,9.33,27.87,13.5,16.05,31.86,98.62,"1,3,4,5,6,8,9,10,11,12,13,14,15,16,17,18,19,20,21,22,23,24,25,26,27,28,29,30,31,32,33,34,35,36,37,38,39,40,41,42,44,45,46,48,49,50,51,52"
zeltweg,Zeltweg,Styria,Austria,47.2039,14.7478,alto,Permanente,4.57,18.59,17.39,17.22,25.51,83.27,"1,2,3,4,5,7,8,11,12,14,15,16,19,20,21,23,25,26,27,28,29,30,31,32,35,36,37,38,39,40,43,44,45,46,48,49,50,51,52"
jarama,Jarama,Madrid,Spain,40.6171,-3.58558,alto,Permanente,5.55,16.98,10.69,12.1,24.77,70.09,"1,2,3,4,5,6,7,8,10,11,12,15,17,19,20,21,22,23,24,25,27,28,29,30,31,32,33,34,35,36,37,38,39,40,41,42,43,44,45,46,47,48,49,51"
